{
	"type": "FeatureCollection",
	"features": [{
		"geometry": {
			"type": "Point",
			"coordinates": [17.1073, 48.143889]
		},
		"type": "Feature",
		"properties": {
			"city": "Bratislava"
		},
		"id": "Bratislava"
	}, {
		"geometry": {
			"type": "Point",
			"coordinates": [23.7333333, 37.9833333]
		},
		"type": "Feature",
		"properties": {
			"city": "Athens",
			"temperature": 11.7,
			"flightDuration": 130
		},
		"id": "Athens"
	}, {
		"geometry": {
			"type": "Point",
			"coordinates": [2.154007, 41.390205]
		},
		"type": "Feature",
		"properties": {
			"city": "Barcelona",
			"temperature": 11.3,
			"flightDuration": 140
		},
		"id": "Barcelona"
	}, {
		"geometry": {
			"type": "Point",
			"coordinates": [-1.898575, 52.489471]
		},
		"type": "Feature",
		"properties": {
			"city": "Birmingham",
			"temperature": 5.2,
			"flightDuration": 155
		},
		"id": "Birmingham"
	}, {
		"geometry": {
			"type": "Point",
			"coordinates": [4.34878, 50.85045]
		},
		"type": "Feature",
		"properties": {
			"city": "Brussels",
			"temperature": 6.4,
			"flightDuration": 105
		},
		"id": "Brussels"
	}, {
		"geometry": {
			"type": "Point",
			"coordinates": [13.41053, 52.52437]
		},
		"type": "Feature",
		"properties": {
			"city": "Berlin",
			"temperature": 4.8,
			"flightDuration": 80
		},
		"id": "Berlin"
	}, {
		"geometry": {
			"type": "Point",
			"coordinates": [-6.24889, 53.33306]
		},
		"type": "Feature",
		"properties": {
			"city": "Dublin",
			"temperature": 6.6,
			"flightDuration": 180
		},
		"id": "Dublin"
	}, {
		"geometry": {
			"type": "Point",
			"coordinates": [55.17128, 25.0657]
		},
		"type": "Feature",
		"properties": {
			"city": "Dubai",
			"temperature": 22.3,
			"flightDuration": 345
		},
		"id": "Dubai"
	}, {
		"geometry": {
			"type": "Point",
			"coordinates": [-3.188267, 55.953251]
		},
		"type": "Feature",
		"properties": {
			"city": "Edinburgh",
			"temperature": 5.5,
			"flightDuration": 165
		},
		"id": "Edinburgh"
	}, {
		"geometry": {
			"type": "Point",
			"coordinates": [34.9519, 29.5577]
		},
		"type": "Feature",
		"properties": {
			"city": "Eilat",
			"temperature": 19.8,
			"flightDuration": 225
		},
		"id": "Eilat"
	}, {
		"geometry": {
			"type": "Point",
			"coordinates": [23.583333, 46.766667]
		},
		"type": "Feature",
		"properties": {
			"city": "Cluj",
			"temperature": 4.1,
			"flightDuration": 80
		},
		"id": "Cluj"
	}, {
		"geometry": {
			"type": "Point",
			"coordinates": [21.25, 48.716667]
		},
		"type": "Feature",
		"properties": {
			"city": "Košice",
			"temperature": 4.0,
			"flightDuration": 55
		},
		"id": "Košice"
	}, {
		"geometry": {
			"type": "Point",
			"coordinates": [30.523333, 50.45]
		},
		"type": "Feature",
		"properties": {
			"city": "Kiev",
			"temperature": 0.7,
			"flightDuration": 100
		},
		"id": "Kiev"
	}, {
		"geometry": {
			"type": "Point",
			"coordinates": [-1.548567, 53.801277]
		},
		"type": "Feature",
		"properties": {
			"city": "Leeds",
			"temperature": 4.5,
			"flightDuration": 145
		},
		"id": "Leeds"
	}, {
		"geometry": {
			"type": "Point",
			"coordinates": [-0.118092, 51.509865]
		},
		"type": "Feature",
		"properties": {
			"city": "London",
			"temperature": 8.0,
			"flightDuration": 145
		},
		"id": "London"
	}, {
		"geometry": {
			"type": "Point",
			"coordinates": [-3.707398, 40.415363]
		},
		"type": "Feature",
		"properties": {
			"city": "Madrid",
			"temperature": 10.7,
			"flightDuration": 190
		},
		"id": "Madrid"
	}, {
		"geometry": {
			"type": "Point",
			"coordinates": [-2.244644, 53.483959]
		},
		"type": "Feature",
		"properties": {
			"city": "Manchester",
			"temperature": 6.3,
			"flightDuration": 190
		},
		"id": "Manchester"
	}, {
		"geometry": {
			"type": "Point",
			"coordinates": [9.183333, 45.466667]
		},
		"type": "Feature",
		"properties": {
			"city": "Milano",
			"temperature": 13.2,
			"flightDuration": 90
		},
		"id": "Milano"
	}, {
		"geometry": {
			"type": "Point",
			"coordinates": [37.616667, 55.75]
		},
		"type": "Feature",
		"properties": {
			"city": "Moscow",
			"temperature": -2.2,
			"flightDuration": 155
		},
		"id": "Moscow"
	}, {
		"geometry": {
			"type": "Point",
			"coordinates": [21.896111, 43.319167]
		},
		"type": "Feature",
		"properties": {
			"city": "Niš",
			"temperature": 6.6,
			"flightDuration": 90
		},
		"id": "Niš"
	}, {
		"geometry": {
			"type": "Point",
			"coordinates": [2.3508, 48.8567]
		},
		"type": "Feature",
		"properties": {
			"city": "Paris",
			"temperature": 8.4,
			"flightDuration": 125
		},
		"id": "Paris"
	}, {
		"geometry": {
			"type": "Point",
			"coordinates": [14.416667, 50.083333]
		},
		"type": "Feature",
		"properties": {
			"city": "Prague",
			"temperature": 3.1,
			"flightDuration": 60
		},
		"id": "Prague"
	}, {
		"geometry": {
			"type": "Point",
			"coordinates": [12.5, 41.9]
		},
		"type": "Feature",
		"properties": {
			"city": "Rome",
			"temperature": 10.2,
			"flightDuration": 100
		},
		"id": "Rome"
	}, {
		"geometry": {
			"type": "Point",
			"coordinates": [21.433333, 42]
		},
		"type": "Feature",
		"properties": {
			"city": "Skopje",
			"temperature": 7.6,
			"flightDuration": 95
		},
		"id": "Skopje"
	}]
}
