{
	"type": "FeatureCollection",
	"features": [{
		"geometry": {
			"type": "Point",
			"coordinates": [17.1073, 48.143889]
		},
		"type": "Feature",
		"properties": {
			"city": "Bratislava"
		},
		"id": "Bratislava"
	}, {
		"geometry": {
			"type": "Point",
			"coordinates": [23.7333333, 37.9833333]
		},
		"type": "Feature",
		"properties": {
			"city": "Athens",
			"temperature": 11.7,
			"flightDuration": 130,
			"company": {
				"name": "Ryanair",
				"link": "http://ryanair.com/"
			}
		},
		"id": "Athens"
	}, {
		"geometry": {
			"type": "Point",
			"coordinates": [2.154007, 41.390205]
		},
		"type": "Feature",
		"properties": {
			"city": "Barcelona",
			"temperature": 11.3,
			"flightDuration": 140,
			"company": {
				"name": "Ryanair",
				"link": "http://ryanair.com/"
			}
		},
		"id": "Barcelona"
	}, {
		"geometry": {
			"type": "Point",
			"coordinates": [-1.898575, 52.489471]
		},
		"type": "Feature",
		"properties": {
			"city": "Birmingham",
			"temperature": 5.2,
			"flightDuration": 155,
			"company": {
				"name": "Ryanair",
				"link": "http://ryanair.com/"
			}
		},
		"id": "Birmingham"
	}, {
		"geometry": {
			"type": "Point",
			"coordinates": [4.34878, 50.85045]
		},
		"type": "Feature",
		"properties": {
			"city": "Brussels",
			"temperature": 6.4,
			"flightDuration": 105,
			"company": {
				"name": "Ryanair",
				"link": "http://ryanair.com/"
			}
		},
		"id": "Brussels"
	}, {
		"geometry": {
			"type": "Point",
			"coordinates": [13.41053, 52.52437]
		},
		"type": "Feature",
		"properties": {
			"city": "Berlin",
			"temperature": 4.8,
			"flightDuration": 80,
			"company": {
				"name": "Ryanair",
				"link": "http://ryanair.com/"
			}
		},
		"id": "Berlin"
	}, {
		"geometry": {
			"type": "Point",
			"coordinates": [-6.24889, 53.33306]
		},
		"type": "Feature",
		"properties": {
			"city": "Dublin",
			"temperature": 6.6,
			"flightDuration": 180,
			"company": {
				"name": "Ryanair",
				"link": "http://ryanair.com/"
			}
		},
		"id": "Dublin"
	}, {
		"geometry": {
			"type": "Point",
			"coordinates": [55.17128, 25.0657]
		},
		"type": "Feature",
		"properties": {
			"city": "Dubai",
			"temperature": 22.3,
			"flightDuration": 345,
			"company": {
				"name": "flydubai",
				"link": "https://www.flydubai.com/"
			}
		},
		"id": "Dubai"
	}, {
		"geometry": {
			"type": "Point",
			"coordinates": [-3.188267, 55.953251]
		},
		"type": "Feature",
		"properties": {
			"city": "Edinburgh",
			"temperature": 5.5,
			"flightDuration": 165,
			"company": {
				"name": "Ryanair",
				"link": "http://ryanair.com/"
			}
		},
		"id": "Edinburgh"
	}, {
		"geometry": {
			"type": "Point",
			"coordinates": [34.9519, 29.5577]
		},
		"type": "Feature",
		"properties": {
			"city": "Eilat",
			"temperature": 19.8,
			"flightDuration": 225,
			"company": {
				"name": "Ryanair",
				"link": "http://ryanair.com/"
			}
		},
		"id": "Eilat"
	}, {
		"geometry": {
			"type": "Point",
			"coordinates": [23.583333, 46.766667]
		},
		"type": "Feature",
		"properties": {
			"city": "Cluj",
			"temperature": 4.1,
			"flightDuration": 80,
			"company": {
				"name": "Wizz Air",
				"link": "https://wizzair.com"
			}
		},
		"id": "Cluj"
	}, {
		"geometry": {
			"type": "Point",
			"coordinates": [21.25, 48.716667]
		},
		"type": "Feature",
		"properties": {
			"city": "Košice",
			"temperature": 4.0,
			"flightDuration": 55,
			"company": {
				"name": "Czech Airlines",
				"link": "https://www.csa.cz"
			}
		},
		"id": "Košice"
	}, {
		"geometry": {
			"type": "Point",
			"coordinates": [30.523333, 50.45]
		},
		"type": "Feature",
		"properties": {
			"city": "Kiev",
			"temperature": 0.7,
			"flightDuration": 100,
			"company": {
				"name": "Wizz Air",
			"company": {
				"name": "Wizz Air",
				"link": "https://wizzair.com"
			},
				"link": "https://wizzair.com"
			}
		},
		"id": "Kiev"
	}, {
		"geometry": {
			"type": "Point",
			"coordinates": [-1.548567, 53.801277]
		},
		"type": "Feature",
		"properties": {
			"city": "Leeds",
			"temperature": 4.5,
			"flightDuration": 145,
			"company": {
				"name": "Ryanair",
				"link": "http://ryanair.com/"
			}
		},
		"id": "Leeds"
	}, {
		"geometry": {
			"type": "Point",
			"coordinates": [-0.118092, 51.509865]
		},
		"type": "Feature",
		"properties": {
			"city": "London",
			"temperature": 8.0,
			"flightDuration": 145,
			"company": {
				"name": "Ryanair",
				"link": "http://ryanair.com/"
			}
		},
		"id": "London"
	}, {
		"geometry": {
			"type": "Point",
			"coordinates": [-3.707398, 40.415363]
		},
		"type": "Feature",
		"properties": {
			"city": "Madrid",
			"temperature": 10.7,
			"flightDuration": 190,
			"company": {
				"name": "Ryanair",
				"link": "http://ryanair.com/"
			}
		},
		"id": "Madrid"
	}, {
		"geometry": {
			"type": "Point",
			"coordinates": [-2.244644, 53.483959]
		},
		"type": "Feature",
		"properties": {
			"city": "Manchester",
			"temperature": 6.3,
			"flightDuration": 190,
			"company": {
				"name": "Ryanair",
				"link": "http://ryanair.com/"
			}
		},
		"id": "Manchester"
	}, {
		"geometry": {
			"type": "Point",
			"coordinates": [9.183333, 45.466667]
		},
		"type": "Feature",
		"properties": {
			"city": "Milano",
			"temperature": 13.2,
			"flightDuration": 90,
			"company": {
				"name": "Ryanair",
				"link": "http://ryanair.com/"
			}
		},
		"id": "Milano"
	}, {
		"geometry": {
			"type": "Point",
			"coordinates": [37.616667, 55.75]
		},
		"type": "Feature",
		"properties": {
			"city": "Moscow",
			"temperature": -2.2,
			"flightDuration": 155,
			"company": {
				"name": "Pobeda Airlines",
				"link": "https://www.pobeda.aero/en"
			}
		},
		"id": "Moscow"
	}, {
		"geometry": {
			"type": "Point",
			"coordinates": [21.896111, 43.319167]
		},
		"type": "Feature",
		"properties": {
			"city": "Niš",
			"temperature": 6.6,
			"flightDuration": 90,
			"company": {
				"name": "Ryanair",
				"link": "http://ryanair.com/"
			}
		},
		"id": "Niš"
	}, {
		"geometry": {
			"type": "Point",
			"coordinates": [2.3508, 48.8567]
		},
		"type": "Feature",
		"properties": {
			"city": "Paris",
			"temperature": 8.4,
			"flightDuration": 125,
			"company": {
				"name": "Ryanair",
				"link": "http://ryanair.com/"
			}
		},
		"id": "Paris"
	}, {
		"geometry": {
			"type": "Point",
			"coordinates": [14.416667, 50.083333]
		},
		"type": "Feature",
		"properties": {
			"city": "Prague",
			"temperature": 3.1,
			"flightDuration": 60,
			"company": {
				"name": "Czech Airlines",
				"link": "https://www.csa.cz"
			}
		},
		"id": "Prague"
	}, {
		"geometry": {
			"type": "Point",
			"coordinates": [12.5, 41.9]
		},
		"type": "Feature",
		"properties": {
			"city": "Rome",
			"temperature": 10.2,
			"flightDuration": 100,
			"company": {
				"name": "Ryanair",
				"link": "http://ryanair.com/"
			}
		},
		"id": "Rome"
	}, {
		"geometry": {
			"type": "Point",
			"coordinates": [21.433333, 42]
		},
		"type": "Feature",
		"properties": {
			"city": "Skopje",
			"temperature": 7.6,
			"flightDuration": 95,
			"company": {
				"name": "Wizz Air",
				"link": "https://wizzair.com"
			}
		},
		"id": "Skopje"
	}, {
		"geometry": {
			"type": "Point",
			"coordinates": [12.516667, 38.016667]
		},
		"type": "Feature",
		"properties": {
			"city": "Trapani",
			"temperature": 13,
			"flightDuration": 135,
			"company": {
				"name": "Ryanair",
				"link": "http://ryanair.com/"
			}
		},
		"id": "Trapani"
	}, {
		"geometry": {
			"type": "Point",
			"coordinates": [8.316667, 40.55]
		},
		"type": "Feature",
		"properties": {
			"city": "Alghero",
			"temperature": 11,
			"flightDuration": 125,
			"company": {
				"name": "Ryanair",
				"link": "http://ryanair.com/"
			}
		},
		"id": "Alghero"
	}, {
		"geometry": {
			"type": "Point",
			"coordinates": [3.017571, 39.695263]
		},
		"type": "Feature",
		"properties": {
			"city": "Mallorca",
			"temperature": 12,
			"flightDuration": 155,
			"company": {
				"name": "Ryanair",
				"link": "http://ryanair.com/"
			}
		},
		"id": "Mallorca"
	}, {
		"geometry": {
			"type": "Point",
			"coordinates": [-4.42, 36.719444]
		},
		"type": "Feature",
		"properties": {
			"city": "Malaga",
			"temperature": 14,
			"flightDuration": 220,
			"company": {
				"name": "Ryanair",
				"link": "http://ryanair.com/"
			}
		},
		"id": "Malaga"
	}, {
		"geometry": {
			"type": "Point",
			"coordinates": [18.6705, 44.5328]
		},
		"type": "Feature",
		"properties": {
			"city": "Tuzla",
			"temperature": 5.1,
			"flightDuration": 70,
			"company": {
				"name": "Wizz Air",
				"link": "https://wizzair.com"
			}
		},
		"id": "Tuzla"
	}]
}
